{
  "type": "FeatureCollection",
  "features": [
    {
      "type": "Feature",
      "properties": {
        "title": "Boreczno, st. 4, gm. Zalewo",
        "description": "&nbsp;",
        "img": "/grodziska/boreczno/img/ryc1.jpg",
        "link": "/grodziska/boreczno/index.html",
        "icon": "/img/grodzisko.png"
      },
      "geometry": {
        "type": "Point",
        "coordinates": [
          19.6923705658667,
          53.78244675526342
        ]
      }
    },
    {
      "type": "Feature",
      "properties": {
        "title": "Zajączki, st. 1, gm. Ostróda",
        "description": "&nbsp;",
        "img": "/grodziska/zajaczki/img/ryc1.jpg",
        "link": "/grodziska/zajaczki/index.html",
        "icon": "/img/grodzisko.png"
      },
      "geometry": {
        "type": "Point",
        "coordinates": [
          19.88575,
          53.54965
        ]
      }
    },
    {
      "type": "Feature",
      "properties": {
        "title": "Gulb, st. 1, gm. Iława",
        "description": "Grodzisko, znane już co najmniej od końca XIX w. i oznaczane na niemieckich mapach jako Ringwall, wpisane jest do rejestru zabytków jako \"grodzisko półwyżynne\". Wskutek swojej specyficznej formy interpretowane było jako wysoczyznowe osiedle obronne z wczesnej epoki żelaza. Podczas badań powierzchniowych znajdowano tu jednak fragmenty ceramiki obtaczanej z ornamentem żłobków dookolnych i linii falistej, co wskazywało na jego wczesnośredniowieczną chronologię.",
        "img": "/grodziska/gulb/img/ryc1.jpg",
        "link": "/grodziska/gulb/index.html",
        "icon": "/img/grodzisko.png"
      },
      "geometry": {
        "type": "Point",
        "coordinates": [
          19.426657685,
          53.575923194
        ]
      }
    },
    {
      "type": "Feature",
      "properties": {
        "title": "Laseczno Małe, st. 1, gm. Iława",
        "description": "Grodzisko, w literaturze przedwojennej określane miejscową nazwą Kaninkenberg lub Kaninchenberg. Wpisane zostało do rejestru zabytków w roku 1968. Kopiec w Lasecznie Małym znajduje się na wysoczyźnie przy wschodniej krawędzi doliny jeziora Gulbińskiego. Obiekt znajduje się w terenie otwartym i jest bardzo silnie eksponowany.",
        "img": "/grodziska/laseczno_male/img/ryc1.jpg",
        "link": "/grodziska/laseczno_male/index.html",
        "icon": "/img/grodzisko.png"
      },
      "geometry": {
        "type": "Point",
        "coordinates": [
          19.404210719,
          53.590877329
        ]
      }
    },
    {
      "type": "Feature",
      "properties": {
        "title": "Kamionka, st. 9, gm. Iława",
        "description": "Grodzisko, występujące w literaturze również pod nazwami miejscowości Silma i Łanioch, a nawet sporadycznie Stradomno, położone jest na półwyspie jeziora Silm, oblanym od wschodu, południa i zachodu jego wodami. W tradycji lokalnej obiekt ten znany jest jako Schwedenschanze, Kesselberg lub Poganek czy Poganka.",
        "img": "/grodziska/kamionka/img/ryc1.jpg",
        "link": "/grodziska/kamionka/index.html",
        "icon": "/img/grodzisko.png"
      },
      "geometry": {
        "type": "Point",
        "coordinates": [
          19.510833168,
          53.608473685
        ]
      }
    },
    {
      "type": "Feature",
      "properties": {
        "title": "Iława, st. 33 – wyspa Wielka Żuława, gm. Iława",
        "description": "Grodzisko, w okresie przedwojennym znane pod nazwą Scholtenberg, położone jest w południowo-wschodniej części wyspy Wielka Żuława na jeziorze Jeziorak, na wysokim brzegu stromo opadającym do jeziora.",
        "img": "/grodziska/wielka_zulawa/img/ryc1.jpg",
        "link": "/grodziska/wielka_zulawa/index.html",
        "icon": "/img/grodzisko.png"
      },
      "geometry": {
        "type": "Point",
        "coordinates": [
          19.551373045,
          53.606625477
        ]
      }
    },
    {
      "type": "Feature",
      "properties": {
        "title": "Smolniki 1",
        "description": "Jakkolwiek  forma terenowa całego badanego terenu (dość wyraźne zbocza nadrzeczne na połowie jego obwodu) sugerowały, iż  (przy braku,  w innych jego częściach, śladów form przekształconego przez człowieka terenu) miejsce to  mogłoby być brane pod uwagę  jako ewentualne, potencjalne grodzisko , to, mając na względzie fakt, iż nie znaleziono ani jednego zabytku a także żadnych wyróżników archeologicznych jak również biorąc pod uwagę naturalny charakter wszystkich znalezionych układów stratyfikacyjnych , należy raczej zdyskwalifikować  badany teren jako miejsce lokalizacji  tego typu obiektu.",
        "img": "/img/empty.png",
        "link": "/sondazowe/smolniki/sprawozdanie.pdf",
        "icon": "/img/sondaz.png"
      },
      "geometry": {
        "type": "Point",
        "coordinates": [
          19.637754699,
          53.546025246
        ]
      }
    },
    {
      "type": "Feature",
      "properties": {
        "title": "Dziarny",
        "description": "Jakkolwiek  forma terenowa całego badanego terenu (dość wyraźne zbocza nadrzeczne na połowie jego obwodu) sugerowały, iż  (przy braku,  w innych jego częściach, śladów form przekształconego przez człowieka terenu) miejsce to  mogłoby być brane pod uwagę  jako ewentualne, potencjalne grodzisko , to, mając na względzie fakt, iż nie znaleziono ani jednego zabytku a także żadnych wyróżników archeologicznych jak również biorąc pod uwagę naturalny charakter wszystkich znalezionych układów stratyfikacyjnych , należy raczej zdyskwalifikować  badany teren jako miejsce lokalizacji  tego typu obiektu.",
        "img": "/img/empty.png",
        "link": "/sondazowe/smolniki/sprawozdanie.pdf",
        "icon": "/img/sondaz.png"
      },
      "geometry": {
        "type": "Point",
        "coordinates": [
          19.644590288,
          53.542055868
        ]
      }
    },
    {
      "type": "Feature",
      "properties": {
        "title": "Szymbark",
        "description": "Jakkolwiek  forma terenowa całego badanego pagórka jak i jego wewnętrzna morfologia sugerowałyby, iż forma ta może być pochodzenia (przynajmniej częściowo) sztucznego.  Stratyfikacja odkrytych warstw także jednoznacznie nie dyskwalifikuje takiej interpretacji omawianego obiektu. Ponieważ jednak nigdzie nie znaleziono ani jednego zabytku archeologicznego a także ani jednego, jednoznacznego wyróżnika archeologicznego (drobiny węgli drzewnych, polepy, przepalona ziemia itp.) na obecnym etapie badań tego miejsca nie można potwierdzić, iż było to poszukiwane, domniemane grodzisko.",
        "img": "/img/empty.png",
        "link": "/sondazowe/szymbark/sprawozdanie.pdf",
        "icon": "/img/sondaz.png"
      },
      "geometry": {
        "type": "Point",
        "coordinates": [
          19.489129459,
          53.634125534
        ]
      }
    },
    {
      "type": "Feature",
      "properties": {
        "title": "Siemiany Zatoka Widłąg",
        "description": "W ramach prac weryfikacyjnych wykonano 27 wierceń z użyciem laski geologicznej  (w ramach 2 linii), które  miały wykazać ewentualną obecność warstw, które można byłoby uznać za archeologiczne (sygnalizowane np. obecnością węgli drzewnych, przepaloną ziemią, drobinami polepy, ceramiki itp.) Głębokość sondowania wynosiła maksymalnie 1m (długość laski geologicznej). Oprócz wierceń otworzono  także 7 wykopów sondażowych.",
        "img": "/img/empty.png",
        "link": "/sondazowe/widlag/sprawozdanie.pdf",
        "icon": "/img/sondaz.png"
      },
      "geometry": {
        "type": "Point",
        "coordinates": [
          19.605955813,
          53.682909414
        ]
      }
    },
    {
      "type": "Feature",
      "properties": {
        "title": "Windyki 1",
        "description": "Uwzględniając  wyniki wszystkich wykonanych odwiertów oraz rezultaty badań na czterech otworzonych wykopach sondażowych należy uznać, że badany obszar nie jest poszukiwanym przez badaczy grodziskiem  a znaleziony obiekt (na wykopie nr 4) jak i nieliczne fragmenty ceramiki znalezionej na wykopie nr 1 i 2 sugerują raczej okazjonalny jedynie charakter użytkowania tego miejsca w przeszłości.",
        "img": "/img/empty.png",
        "link": "/sondazowe/windyki/sprawozdanie.pdf",
        "icon": "/img/sondaz.png"
      },
      "geometry": {
        "type": "Point",
        "coordinates": [
          19.622305469,
          53.632296933
        ]
      }
    },
    {
      "type": "Feature",
      "properties": {
        "title": "Windyki 2",
        "description": "Uwzględniając  wyniki wszystkich wykonanych odwiertów oraz rezultaty badań na czterech otworzonych wykopach sondażowych należy uznać, że badany obszar nie jest poszukiwanym przez badaczy grodziskiem  a znaleziony obiekt (na wykopie nr 4) jak i nieliczne fragmenty ceramiki znalezionej na wykopie nr 1 i 2 sugerują raczej okazjonalny jedynie charakter użytkowania tego miejsca w przeszłości.",
        "img": "/img/empty.png",
        "link": "/sondazowe/windyki/sprawozdanie.pdf",
        "icon": "/img/sondaz.png"
      },
      "geometry": {
        "type": "Point",
        "coordinates": [
          19.613544687,
          53.6335828
        ]
      }
    },
    {
      "type": "Feature",
      "properties": {
        "title": "Windyki-Tynwałd",
        "description": "Ponieważ w żadnym z odwiertów oraz wykopie sondażowym nie znaleziono żadnych archeologicznych świadectw działalności człowieka, fakt domniemanego \"sztucznego\" pochodzenia struktury nazywanej tutaj „wałem” (która mogła powstać podczas jakichś prac  ziemnych w nieodległych bądź całkiem współczesnych czasach) nie przesądza o starożytności badanego miejsca i w tym rozumieniu nie potwierdza, iż miejsce to w przeszłości mogło być grodziskiem.",
        "img": "/img/empty.png",
        "link": "/sondazowe/windyki_tynwald/sprawozdanie.pdf",
        "icon": "/img/sondaz.png"
      },
      "geometry": {
        "type": "Point",
        "coordinates": [
          19.634700277,
          53.646091299
        ]
      }
    },
    {
      "type": "Feature",
      "properties": {
        "title": "Wieprz, st. 1 – wyspa Bukowiec, gm. Zalewo",
        "description": "&nbsp;",
        "img": "/grodziska/wieprz/img/ryc1.jpg",
        "link": "/grodziska/wieprz/index.html",
        "icon": "/img/grodzisko.png"
      },
      "geometry": {
        "type": "Point",
        "coordinates": [
          19.611523498,
          53.735973918
        ]
      }
    },
    {
      "type": "Feature",
      "properties": {
        "title": "Urowo, st. 1, gm. Zalewo",
        "description": "&nbsp;",
        "img": "/grodziska/urowo/img/ryc1.jpg",
        "link": "/grodziska/urowo/index.html",
        "icon": "/img/grodzisko.png"
      },
      "geometry": {
        "type": "Point",
        "coordinates": [
          19.720458546,
          53.736438775
        ]
      }
    },
    {
      "type": "Feature",
      "properties": {
        "title": "Duba, st. 1, gm. Zalewo",
        "description": "&nbsp;",
        "img": "/grodziska/duba/img/ryc1.jpg",
        "link": "/grodziska/duba/index.html",
        "icon": "/img/grodzisko.png"
      },
      "geometry": {
        "type": "Point",
        "coordinates": [
          19.697187212,
          53.753333637
        ]
      }
    },
    {
      "type": "Feature",
      "properties": {
        "title": "Mozgowo, st. 1, gm. Zalewo",
        "description": "&nbsp;",
        "img": "/grodziska/mozgowo/img/ryc1.jpg",
        "link": "/grodziska/mozgowo/index.html",
        "icon": "/img/grodzisko.png"
      },
      "geometry": {
        "type": "Point",
        "coordinates": [
          19.700284893,
          53.754304847
        ]
      }
    },
    {
      "type": "Feature",
      "properties": {
        "title": "Susz, st. 1, gm. Susz",
        "description": "&nbsp;",
        "img": "/grodziska/susz/img/ryc1.jpg",
        "link": "/grodziska/susz/index.html",
        "icon": "/img/grodzisko.png"
      },
      "geometry": {
        "type": "Point",
        "coordinates": [
          19.339041413,
          53.715271565
        ]
      }
    },
    {
      "type": "Feature",
      "properties": {
        "title": "Janiki Wielkie, st. 2, gm. Zalewo",
        "description": "&nbsp;",
        "img": "/grodziska/janiki_wielkie/img/ryc1.jpg",
        "link": "/grodziska/janiki_wielkie/index.html",
        "icon": "/img/grodzisko.png"
      },
      "geometry": {
        "type": "Point",
        "coordinates": [
          19.728637894,
          53.828472464
        ]
      }
    },
    {
      "type": "Feature",
      "properties": {
        "title": "Łodygowo, st. 1, gm. Kisielice",
        "description": "&nbsp;",
        "img": "/grodziska/lodygowo_1/img/ryc1.jpg",
        "link": "/grodziska/lodygowo_1/index.html",
        "icon": "/img/grodzisko.png"
      },
      "geometry": {
        "type": "Point",
        "coordinates": [
          19.184574641,
          53.621620462
        ]
      }
    },
    {
      "type": "Feature",
      "properties": {
        "title": "Wieprz, st. 20, gm. Zalewo",
        "description": "&nbsp;",
        "img": "/grodziska/wieprz_20/img/ryc1.jpg",
        "link": "/grodziska/wieprz_20/index.html",
        "icon": "/img/grodzisko.png"
      },
      "geometry": {
        "type": "Point",
        "coordinates": [
          19.620862685,
          53.757337902
        ]
      }
    },
    {
      "type": "Feature",
      "properties": {
        "title": "Trupel, st. 1, gm. Kisielice",
        "description": "&nbsp;",
        "img": "/grodziska/trupel/img/ryc1.jpg",
        "link": "/grodziska/trupel/index.html",
        "icon": "/img/grodzisko.png"
      },
      "geometry": {
        "type": "Point",
        "coordinates": [
          19.342436831,
          53.559974415
        ]
      }
    },
    {
      "type": "Feature",
      "properties": {
        "title": "Miłomłyn, st. 3 – Zamek",
        "description": "&nbsp;",
        "img": "/grodziska/milomlyn/img/ryc1.jpg",
        "link": "/grodziska/milomlyn/index.html",
        "icon": "/img/grodzisko.png"
      },
      "geometry": {
        "type": "Point",
        "coordinates": [
          19.836788661,
          53.763465537
        ]
      }
    },
    {
      "type": "Feature",
      "properties": {
        "title": "Wenecja, st. 2, gm. Morąg",
        "description": "&nbsp;",
        "img": "/grodziska/wenecja/img/ryc1.jpg",
        "link": "/grodziska/wenecja/index.html",
        "icon": "/img/grodzisko.png"
      },
      "geometry": {
        "type": "Point",
        "coordinates": [
          19.825114754,
          53.849072182
        ]
      }
    },
    {
      "type": "Feature",
      "properties": {
        "title": "Karolewo, st. 1, gm. Susz",
        "description": "&nbsp;",
        "img": "/grodziska/karolewo/img/ryc1.jpg",
        "link": "/grodziska/karolewo/index.html",
        "icon": "/img/grodzisko.png"
      },
      "geometry": {
        "type": "Point",
        "coordinates": [
          19.291572052,
          53.731006194
        ]
      }
    },
    {
      "type": "Feature",
      "properties": {
        "title": "Miłomłyn st. 2",
        "description": "&nbsp;",
        "img": "/img/empty.png",
        "link": "/img/sondaz.png",
        "icon": "/img/sondaz.png"
      },
      "geometry": {
        "type": "Point",
        "coordinates": [
          19.834767804,
          53.765939995
        ]
      }
    },
    {
      "type": "Feature",
      "properties": {
        "title": "Liksajny",
        "description": "&nbsp;",
        "img": "/img/empty.png",
        "link": "/img/sondaz.png",
        "icon": "/img/sondaz.png"
      },
      "geometry": {
        "type": "Point",
        "coordinates": [
          19.817494754,
          53.817104547
        ]
      }
    },
    {
      "type": "Feature",
      "properties": {
        "title": "Wenecja st. 1",
        "description": "&nbsp;",
        "img": "/img/empty.png",
        "link": "/img/sondaz.png",
        "icon": "/img/sondaz.png"
      },
      "geometry": {
        "type": "Point",
        "coordinates": [
          19.814125707,
          53.848201339
        ]
      }
    },
    {
      "type": "Feature",
      "properties": {
        "title": "Iława Czarcie Jeziorko",
        "description": "&nbsp;",
        "img": "/img/empty.png",
        "link": "/img/sondaz.png",
        "icon": "/img/sondaz.png"
      },
      "geometry": {
        "type": "Point",
        "coordinates": [
          19.547125801,
          53.591065384
        ]
      }
    },
    {
      "type": "Feature",
      "properties": {
        "title": "Iława Królicza Góra",
        "description": "&nbsp;",
        "img": "/img/empty.png",
        "link": "/img/sondaz.png",
        "icon": "/img/sondaz.png"
      },
      "geometry": {
        "type": "Point",
        "coordinates": [
          19.565277698,
          53.592623774
        ]
      }
    },
    {
      "type": "Feature",
      "properties": {
        "title": "Ząbrowo Kopiec Napoleoński",
        "description": "&nbsp;",
        "img": "/img/empty.png",
        "link": "/img/sondaz.png",
        "icon": "/img/sondaz.png"
      },
      "geometry": {
        "type": "Point",
        "coordinates": [
          19.469187223,
          53.644635193
        ]
      }
    },
    {
      "type": "Feature",
      "properties": {
        "title": "Segnowy I",
        "description": "&nbsp;",
        "img": "/img/empty.png",
        "link": "/img/sondaz.png",
        "icon": "/img/sondaz.png"
      },
      "geometry": {
        "type": "Point",
        "coordinates": [
          19.47216629,
          53.621816608
        ]
      }
    },
    {
      "type": "Feature",
      "properties": {
        "title": "Segnowy II",
        "description": "&nbsp;",
        "img": "/img/empty.png",
        "link": "/img/sondaz.png",
        "icon": "/img/sondaz.png"
      },
      "geometry": {
        "type": "Point",
        "coordinates": [
          19.473565661,
          53.619973253
        ]
      }
    },
    {
      "type": "Feature",
      "properties": {
        "title": "Dobrzyki Schiefe Berg",
        "description": "&nbsp;",
        "img": "/img/empty.png",
        "link": "/img/sondaz.png",
        "icon": "/img/sondaz.png"
      },
      "geometry": {
        "type": "Point",
        "coordinates": [
          19.593225299,
          53.810401375
        ]
      }
    },
    {
      "type": "Feature",
      "properties": {
        "title": "Dobrzyki Burghugel",
        "description": "&nbsp;",
        "img": "/img/empty.png",
        "link": "/img/sondaz.png",
        "icon": "/img/sondaz.png"
      },
      "geometry": {
        "type": "Point",
        "coordinates": [
          19.551519202,
          53.825466905
        ]
      }
    },
    {
      "type": "Feature",
      "properties": {
        "title": "Bądki",
        "description": "&nbsp;",
        "img": "/img/empty.png",
        "link": "/img/sondaz.png",
        "icon": "/img/sondaz.png"
      },
      "geometry": {
        "type": "Point",
        "coordinates": [
          19.632512763,
          53.856493355
        ]
      }
    },
    {
      "type": "Feature",
      "properties": {
        "title": "Zalewo",
        "description": "&nbsp;",
        "img": "/img/empty.png",
        "link": "/img/sondaz.png",
        "icon": "/img/sondaz.png"
      },
      "geometry": {
        "type": "Point",
        "coordinates": [
          19.590728966,
          53.856853851
        ]
      }
    },
    {
      "type": "Feature",
      "properties": {
        "title": "Limża",
        "description": "&nbsp;",
        "img": "/img/empty.png",
        "link": "/img/sondaz.png",
        "icon": "/img/sondaz.png"
      },
      "geometry": {
        "type": "Point",
        "coordinates": [
          19.215401398,
          53.606633712
        ]
      }
    },
    {
      "type": "Feature",
      "properties": {
        "title": "Janiki Małe",
        "description": "&nbsp;",
        "img": "/img/empty.png",
        "link": "/img/sondaz.png",
        "icon": "/img/sondaz.png"
      },
      "geometry": {
        "type": "Point",
        "coordinates": [
          19.692595438,
          53.817856771
        ]
      }
    },
    {
      "type": "Feature",
      "properties": {
        "title": "Majdany Małe",
        "description": "&nbsp;",
        "img": "/img/empty.png",
        "link": "/img/sondaz.png",
        "icon": "/img/sondaz.png"
      },
      "geometry": {
        "type": "Point",
        "coordinates": [
          19.837571755,
          53.785918626
        ]
      }
    },
    {
      "type": "Feature",
      "properties": {
        "title": "Bartężek",
        "description": "&nbsp;",
        "img": "/img/empty.png",
        "link": "/img/sondaz.png",
        "icon": "/img/sondaz.png"
      },
      "geometry": {
        "type": "Point",
        "coordinates": [
          19.870687199,
          53.822231241
        ]
      }
    },
    {
      "type": "Feature",
      "properties": {
        "title": "Kamieniec",
        "description": "&nbsp;",
        "img": "/img/empty.png",
        "link": "/img/sondaz.png",
        "icon": "/img/sondaz.png"
      },
      "geometry": {
        "type": "Point",
        "coordinates": [
          19.37889002,
          53.766520704
        ]
      }
    },
    {
      "type": "Feature",
      "properties": {
        "title": "Łodygowo, st. 2, gm. Kisielice",
        "description": "&nbsp;",
        "img": "/grodziska/lodygowo_2/img/ryc1.jpg",
        "link": "/grodziska/lodygowo_2/index.html",
        "icon": "/img/grodzisko.png"
      },
      "geometry": {
        "type": "Point",
        "coordinates": [
          19.186418363,
          53.624342409
        ]
      }
    },
    {
      "type": "Feature",
      "properties": {
        "title": "Łodygowo st. 3",
        "description": "&nbsp;",
        "img": "/grodziska/lodygowo_3/img/ryc1.jpg",
        "link": "/grodziska/lodygowo_3/index.html",
        "icon": "/img/sondaz.png"
      },
      "geometry": {
        "type": "Point",
        "coordinates": [
          19.185096313,
          53.618916446
        ]
      }
    },
    {
      "type": "Feature",
      "properties": {
        "title": "Stary Folwark, st. 1, gm. Kisielice",
        "description": "&nbsp;",
        "img": "/grodziska/stary_folwark/img/ryc1.jpg",
        "link": "/grodziska/stary_folwark/index.html",
        "icon": "/img/grodzisko.png"
      },
      "geometry": {
        "type": "Point",
        "coordinates": [
          19.34303181,
          53.631980405
        ]
      }
    },
    {
      "type": "Feature",
      "properties": {
        "title": "Stary Folwark, st. 2, gm. Kisielice",
        "description": "&nbsp;",
        "img": "/grodziska/stary_folwark_2/img/ryc1.jpg",
        "link": "/grodziska/stary_folwark_2/index.html",
        "icon": "/img/grodzisko.png"
      },
      "geometry": {
        "type": "Point",
        "coordinates": [
          19.33574,
          53.61421
        ]
      }
    },
    {
      "type": "Feature",
      "properties": {
        "title": "Strużyna, st. 21, gm. Morąg",
        "description": "&nbsp;",
        "img": "/grodziska/struzyna/img/ryc1.jpg",
        "link": "/grodziska/struzyna/index.html",
        "icon": "/img/grodzisko.png"
      },
      "geometry": {
        "type": "Point",
        "coordinates": [
          19.973058276,
          54.003810999
        ]
      }
    },
    {
      "type": "Feature",
      "properties": {
        "title": "Tątławki, st. 2, gm. Morąg",
        "description": "&nbsp;",
        "img": "/grodziska/tatlawki/img/ryc1.jpg",
        "link": "/grodziska/tatlawki/index.html",
        "icon": "/img/grodzisko.png"
      },
      "geometry": {
        "type": "Point",
        "coordinates": [
          20.07198172,
          53.881333635
        ]
      }
    },
    {
      "type": "Feature",
      "properties": {
        "title": "Raciszewo, st. 9, gm. Miłakowo",
        "description": "&nbsp;",
        "img": "/grodziska/raciszewo/img/ryc1.jpg",
        "link": "/grodziska/raciszewo/index.html",
        "icon": "/img/grodzisko.png"
      },
      "geometry": {
        "type": "Point",
        "coordinates": [
          20.148608741,
          53.983642382
        ]
      }
    },
    {
      "type": "Feature",
      "properties": {
        "title": "Pawełki, st. 5 (Rotajny), gm. Miłakowo",
        "description": "&nbsp;",
        "img": "/grodziska/rotajny/img/ryc1.jpg",
        "link": "/grodziska/rotajny/index.html",
        "icon": "/img/grodzisko.png"
      },
      "geometry": {
        "type": "Point",
        "coordinates": [
          20.068038296,
          54.074295147
        ]
      }
    },
    {
      "type": "Feature",
      "properties": {
        "title": "Podągi, st. 2, gm. Godkowo",
        "description": "&nbsp;",
        "img": "/grodziska/podagi/img/ryc1.jpg",
        "link": "/grodziska/podagi/index.html",
        "icon": "/img/grodzisko.png"
      },
      "geometry": {
        "type": "Point",
        "coordinates": [
          20.042487423,
          54.064894114
        ]
      }
    },
    {
      "type": "Feature",
      "properties": {
        "title": "Plebania Wólka",
        "description": "&nbsp;",
        "img": "/img/empty.png",
        "link": "/img/sondaz.png",
        "icon": "/img/sondaz.png"
      },
      "geometry": {
        "type": "Point",
        "coordinates": [
          19.950100702,
          53.933246264
        ]
      }
    },
    {
      "type": "Feature",
      "properties": {
        "title": "Kruszewnia",
        "description": "&nbsp;",
        "img": "/img/empty.png",
        "link": "/img/sondaz.png",
        "icon": "/img/sondaz.png"
      },
      "geometry": {
        "type": "Point",
        "coordinates": [
          19.963066412,
          53.911886541
        ]
      }
    },
    {
      "type": "Feature",
      "properties": {
        "title": "Kiełkuty Svantegora",
        "description": "&nbsp;",
        "img": "/img/empty.png",
        "link": "/img/sondaz.png",
        "icon": "/img/sondaz.png"
      },
      "geometry": {
        "type": "Point",
        "coordinates": [
          19.827339763,
          53.916783394
        ]
      }
    },
    {
      "type": "Feature",
      "properties": {
        "title": "Bałoszyce Małe",
        "description": "&nbsp;",
        "img": "/img/empty.png",
        "link": "/img/sondaz.png",
        "icon": "/img/sondaz.png"
      },
      "geometry": {
        "type": "Point",
        "coordinates": [
          19.317796081,
          53.681996779
        ]
      }
    },
    {
      "type": "Feature",
      "properties": {
        "title": "Bałoszyce",
        "description": "&nbsp;",
        "img": "/img/empty.png",
        "link": "/img/sondaz.png",
        "icon": "/img/sondaz.png"
      },
      "geometry": {
        "type": "Point",
        "coordinates": [
          19.280883906,
          53.671273418
        ]
      }
    },
    {
      "type": "Feature",
      "properties": {
        "title": "Słonecznik Wyspa Zamkowa",
        "description": "&nbsp;",
        "img": "/img/empty.png",
        "link": "/img/sondaz.png",
        "icon": "/img/sondaz.png"
      },
      "geometry": {
        "type": "Point",
        "coordinates": [
          19.837260872,
          53.83888937
        ]
      }
    },
    {
      "type": "Feature",
      "properties": {
        "title": "Dury Lisia Góra",
        "description": "&nbsp;",
        "img": "/img/empty.png",
        "link": "/img/sondaz.png",
        "icon": "/img/sondaz.png"
      },
      "geometry": {
        "type": "Point",
        "coordinates": [
          19.972131392,
          53.89844079
        ]
      }
    },
    {
      "type": "Feature",
      "properties": {
        "title": "Sportyny",
        "description": "&nbsp;",
        "img": "/img/empty.png",
        "link": "/img/sondaz.png",
        "icon": "/img/sondaz.png"
      },
      "geometry": {
        "type": "Point",
        "coordinates": [
          20.101322678,
          54.067260565
        ]
      }
    },
    {
      "type": "Feature",
      "properties": {
        "title": "Chojnik",
        "description": "&nbsp;",
        "img": "/img/empty.png",
        "link": "/img/sondaz.png",
        "icon": "/img/sondaz.png"
      },
      "geometry": {
        "type": "Point",
        "coordinates": [
          19.810688223,
          53.976960141
        ]
      }
    },
    {
      "type": "Feature",
      "properties": {
        "title": "Kretowiny",
        "description": "&nbsp;",
        "img": "/img/empty.png",
        "link": "/img/sondaz.png",
        "icon": "/img/sondaz.png"
      },
      "geometry": {
        "type": "Point",
        "coordinates": [
          20.031970371,
          53.896706271
        ]
      }
    },
    {
      "type": "Feature",
      "properties": {
        "title": "Bałoszyce - Pałac, gm. Susz",
        "description": "&nbsp;",
        "img": "/grodziska/baloszyce/img/thumb.jpg",
        "link": "/grodziska/baloszyce/index.html",
        "icon": "/img/grodzisko.png"
      },
      "geometry": {
        "type": "Point",
        "coordinates": [
          19.281271874,
          53.673738194
        ]
      }
    },
    {
      "type": "Feature",
      "properties": {
        "title": "Ligi",
        "description": "&nbsp;",
        "img": "/img/empty.png",
        "link": "/img/sondaz.png",
        "icon": "/img/sondaz.png"
      },
      "geometry": {
        "type": "Point",
        "coordinates": [
          19.72892,
          53.75107
        ]
      }
    },
    {
      "type": "Feature",
      "properties": {
        "title": "Zimnochy, st. 2, gm. Godkowo",
        "description": "&nbsp;",
        "img": "/grodziska/zimnochy/img/ryc1.jpg",
        "link": "/grodziska/zimnochy/index.html",
        "icon": "/img/grodzisko.png"
      },
      "geometry": {
        "type": "Point",
        "coordinates": [
          19.98142,
          54.01833
        ]
      }
    },
    {
      "type": "Feature",
      "properties": {
        "title": "Strużyna, st. 24, gm. Morąg",
        "description": "&nbsp;",
        "img": "/grodziska/struzyna_24/img/ryc1.jpg",
        "link": "/grodziska/struzyna_24/index.html",
        "icon": "/img/grodzisko.png"
      },
      "geometry": {
        "type": "Point",
        "coordinates": [
          19.9695,
          54.01272
        ]
      }
    },
    {
      "type": "Feature",
      "properties": {
        "title": "Plichta, st. 1, gm. Łukta",
        "description": "&nbsp;",
        "img": "/grodziska/plichta/img/ryc1.jpg",
        "link": "/grodziska/plichta/index.html",
        "icon": "/img/grodzisko.png"
      },
      "geometry": {
        "type": "Point",
        "coordinates": [
          20.14272,
          53.74131
        ]
      }
    },
    {
      "type": "Feature",
      "properties": {
        "title": "Morliny, st. 1, gm. Ostróda",
        "description": "&nbsp;",
        "img": "/grodziska/morliny/img/ryc1.jpg",
        "link": "/grodziska/morliny/index.html",
        "icon": "/img/grodzisko.png"
      },
      "geometry": {
        "type": "Point",
        "coordinates": [
          19.93373,
          53.67662
        ]
      }
    },
    {
      "type": "Feature",
      "properties": {
        "title": "Lipowiec, st. 1, gm. Ostróda",
        "description": "&nbsp;",
        "img": "/grodziska/lipowiec/img/ryc1.jpg",
        "link": "/grodziska/lipowiec/index.html",
        "icon": "/img/grodzisko.png"
      },
      "geometry": {
        "type": "Point",
        "coordinates": [
          20.02525,
          53.65891
        ]
      }
    },
    {
      "type": "Feature",
      "properties": {
        "title": "Grabin, st. 1, gm. Ostróda",
        "description": "&nbsp;",
        "img": "/grodziska/grabin/img/ryc1.jpg",
        "link": "/grodziska/grabin/index.html",
        "icon": "/img/grodzisko.png"
      },
      "geometry": {
        "type": "Point",
        "coordinates": [
          20.02297,
          53.65593
        ]
      }
    },
    {
      "type": "Feature",
      "properties": {
        "title": "Lipowiec, st. 2 (Lichtajny), gm. Ostróda",
        "description": "&nbsp;",
        "img": "/grodziska/lichtajny/img/ryc1.jpg",
        "link": "/grodziska/lichtajny/index.html",
        "icon": "/img/grodzisko.png"
      },
      "geometry": {
        "type": "Point",
        "coordinates": [
          20.00877,
          53.65207
        ]
      }
    },
    {
      "type": "Feature",
      "properties": {
        "title": "Durąg, st. 1, gm. Ostróda",
        "description": "&nbsp;",
        "img": "/grodziska/durag/img/ryc1.jpg",
        "link": "/grodziska/durag/index.html",
        "icon": "/img/grodzisko.png"
      },
      "geometry": {
        "type": "Point",
        "coordinates": [
          20.03752,
          53.62051
        ]
      }
    },
    {
      "type": "Feature",
      "properties": {
        "description": "&nbsp;",
        "icon": "/img/sondaz.png",
        "title": "Karnity",
        "img": "/img/empty.png",
        "link": "/img/sondaz.png"
      },
      "geometry": {
        "type": "Point",
        "coordinates": [
          19.72538502061756,
          53.74407747665212,
          0
        ]
      }
    },
    {
      "type": "Feature",
      "properties": {
        "description": "&nbsp;",
        "icon": "/img/sondaz.png",
        "title": "Karnitki",
        "img": "/img/empty.png",
        "link": "/img/sondaz.png"
      },
      "geometry": {
        "type": "Point",
        "coordinates": [
          19.72035704190461,
          53.74801184203989,
          0
        ]
      }
    },
    {
      "type": "Feature",
      "properties": {
        "description": "&nbsp;",
        "icon": "/img/sondaz.png",
        "title": "Jerzwałd (2)",
        "img": "/img/empty.png",
        "link": "/img/sondaz.png"
      },
      "geometry": {
        "type": "Point",
        "coordinates": [
          19.49434495068853,
          53.77186538166239,
          0
        ]
      }
    },
    {
      "type": "Feature",
      "properties": {
        "description": "&nbsp;",
        "icon": "/img/sondaz.png",
        "title": "Jerzwałd",
        "img": "/img/empty.png",
        "link": "/img/sondaz.png"
      },
      "geometry": {
        "type": "Point",
        "coordinates": [
          19.49386867209046,
          53.77026619239424,
          0
        ]
      }
    },
    {
      "type": "Feature",
      "properties": {
        "description": "&nbsp;",
        "icon": "/img/sondaz.png",
        "title": "Januszewo",
        "img": "/img/empty.png",
        "link": "/img/sondaz.png"
      },
      "geometry": {
        "type": "Point",
        "coordinates": [
          19.46737675420271,
          53.70607952464228,
          0
        ]
      }
    },
    {
      "type": "Feature",
      "properties": {
        "description": "&nbsp;",
        "icon": "/img/sondaz.png",
        "title": "Frydrychowo",
        "img": "/img/empty.png",
        "link": "/img/sondaz.png"
      },
      "geometry": {
        "type": "Point",
        "coordinates": [
          19.29909393288245,
          53.65766353676211,
          0
        ]
      }
    },
    {
      "type": "Feature",
      "properties": {
        "description": "&nbsp;",
        "icon": "/img/sondaz.png",
        "title": "Fabianki",
        "img": "/img/empty.png",
        "link": "/img/sondaz.png"
      },
      "geometry": {
        "type": "Point",
        "coordinates": [
          19.46961886586296,
          53.75470153575094,
          0
        ]
      }
    },
    {
      "type": "Feature",
      "properties": {
        "description": "&nbsp;",
        "icon": "/img/sondaz.png",
        "title": "Bałoszyce Małe (2)",
        "img": "/img/empty.png",
        "link": "/img/sondaz.png"
      },
      "geometry": {
        "type": "Point",
        "coordinates": [
          19.31954634669693,
          53.68068467746193,
          0
        ]
      }
    },
    {
      "type": "Feature",
      "properties": {
        "description": "&nbsp;",
        "icon": "/img/sondaz.png",
        "title": "Bądki (2)",
        "img": "/img/empty.png",
        "link": "/img/sondaz.png"
      },
      "geometry": {
        "type": "Point",
        "coordinates": [
          19.6306756500135,
          53.85695433600535,
          0
        ]
      }
    },
    {
      "type": "Feature",
      "properties": {
        "description": "&nbsp;",
        "icon": "/img/sondaz.png",
        "title": "Bednarki",
        "img": "/img/empty.png",
        "link": "/img/sondaz.png"
      },
      "geometry": {
        "type": "Point",
        "coordinates": [
          19.9893949326822,
          53.57066690943261,
          0
        ]
      }
    },
    {
      "type": "Feature",
      "properties": {
        "description": "&nbsp;",
        "icon": "/img/sondaz.png",
        "title": "Lipowo",
        "img": "/img/empty.png",
        "link": "/img/sondaz.png"
      },
      "geometry": {
        "type": "Point",
        "coordinates": [
          19.8165113085539,
          53.58736222420078,
          0
        ]
      }
    },
    {
      "type": "Feature",
      "properties": {
        "description": "&nbsp;",
        "icon": "/img/sondaz.png",
        "title": "Lipowo (2)",
        "img": "/img/empty.png",
        "link": "/img/sondaz.png"
      },
      "geometry": {
        "type": "Point",
        "coordinates": [
          19.82515152182501,
          53.5866617176856,
          0
        ]
      }
    },
    {
      "type": "Feature",
      "properties": {
        "description": "&nbsp;",
        "icon": "/img/sondaz.png",
        "title": "Matyty",
        "img": "/img/empty.png",
        "link": "/img/sondaz.png"
      },
      "geometry": {
        "type": "Point",
        "coordinates": [
          19.58310040720756,
          53.77958147958853,
          0
        ]
      }
    },
    {
      "type": "Feature",
      "properties": {
        "description": "&nbsp;",
        "icon": "/img/sondaz.png",
        "title": "Ostróda",
        "img": "/img/empty.png",
        "link": "/img/sondaz.png"
      },
      "geometry": {
        "type": "Point",
        "coordinates": [
          19.92372086858825,
          53.72289550199665,
          0
        ]
      }
    },
    {
      "type": "Feature",
      "properties": {
        "description": "&nbsp;",
        "icon": "/img/sondaz.png",
        "title": "Pityny",
        "img": "/img/empty.png",
        "link": "/img/sondaz.png"
      },
      "geometry": {
        "type": "Point",
        "coordinates": [
          20.11831963288199,
          54.00866617244954,
          0
        ]
      }
    },
    {
      "type": "Feature",
      "properties": {
        "description": "&nbsp;",
        "icon": "/img/sondaz.png",
        "title": "Raj",
        "img": "/img/empty.png",
        "link": "/img/sondaz.png"
      },
      "geometry": {
        "type": "Point",
        "coordinates": [
          19.91698438431138,
          53.87361994647729,
          0
        ]
      }
    },
    {
      "type": "Feature",
      "properties": {
        "description": "&nbsp;",
        "icon": "/img/sondaz.png",
        "title": "Samborowo",
        "img": "/img/empty.png",
        "link": "/img/sondaz.png"
      },
      "geometry": {
        "type": "Point",
        "coordinates": [
          19.83480784428816,
          53.65605862570829,
          0
        ]
      }
    },
    {
      "type": "Feature",
      "properties": {
        "description": "&nbsp;",
        "icon": "/img/sondaz.png",
        "title": "Samborowo (2)",
        "img": "/img/empty.png",
        "link": "/img/sondaz.png"
      },
      "geometry": {
        "type": "Point",
        "coordinates": [
          19.82876081006705,
          53.65619621517233,
          0
        ]
      }
    },
    {
      "type": "Feature",
      "properties": {
        "description": "&nbsp;",
        "icon": "/img/sondaz.png",
        "title": "Złotna",
        "img": "/img/empty.png",
        "link": "/img/sondaz.png"
      },
      "geometry": {
        "type": "Point",
        "coordinates": [
          19.89624613630339,
          54.00456957904805,
          0
        ]
      }
    },
    {
      "type": "Feature",
      "properties": {
        "description": "&nbsp;",
        "icon": "/img/sondaz.png",
        "title": "Siemiany",
        "img": "/img/empty.png",
        "link": "/img/sondaz.png"
      },
      "geometry": {
        "type": "Point",
        "coordinates": [
          19.60041050868739,
          53.73290234097717,
          0
        ]
      }
    },
    {
      "type": "Feature",
      "properties": {
        "description": "&nbsp;",
        "icon": "/img/sondaz.png",
        "title": "Zduny",
        "img": "/img/empty.png",
        "link": "/img/sondaz.png"
      },
      "geometry": {
        "type": "Point",
        "coordinates": [
          19.75838781271598,
          53.96500995305353,
          0
        ]
      }
    }
  ]
}
